City_ID,City,Country,Lat,Lng,Max Temp,Humidity,Cloudiness,Wind Speed,Current Description
0,Rikitea,PF,-23.1203,-134.9692,79.14,66,14,9.44,few clouds
1,Cape Town,ZA,-33.9258,18.4232,68.11,67,44,6.96,scattered clouds
2,Vaini,TO,-21.2,-175.2,84.36,84,75,5.75,broken clouds
3,Ushuaia,AR,-54.8,-68.3,40.78,88,54,3.83,broken clouds
4,Mataura,NZ,-46.1927,168.8643,66.81,56,3,2.62,clear sky
5,Dikson,RU,73.5069,80.5464,-17.93,100,21,3.56,few clouds
6,Naze,JP,28.3667,129.4833,63.52,58,95,13.73,overcast clouds
7,Wilmington,US,34.2257,-77.9447,62.85,22,0,11.5,clear sky
8,Port Elizabeth,ZA,-33.918,25.5701,66.09,99,100,1.01,overcast clouds
9,Victoria,HK,22.2855,114.1577,63.95,94,100,5.01,moderate rain
10,Port Alfred,ZA,-33.5906,26.891,70.18,84,99,21.14,overcast clouds
11,Brae,GB,60.3964,-1.353,47.32,86,3,17.31,clear sky
12,Sarankhola,BD,22.3082,89.7897,76.19,98,35,5.14,scattered clouds
13,Airai,TL,-8.9266,125.4092,63.46,83,85,1.03,overcast clouds
14,Meadow Lake,US,34.8014,-106.5436,80.85,7,99,6.13,overcast clouds
15,Mahebourg,MU,-20.4081,57.7,76.24,73,8,7.2,clear sky
16,Bela,IN,25.9333,81.9833,74.05,11,0,4.81,clear sky
17,Punta Arenas,CL,-53.15,-70.9167,48.11,70,20,12.66,few clouds
18,Boddam,GB,57.4667,-1.7833,43.43,82,5,2.08,clear sky
19,Kapaa,US,22.0752,-159.319,79.48,64,18,4.0,few clouds
20,Kruisfontein,ZA,-34.0033,24.7314,63.88,81,81,5.23,broken clouds
21,Yantal,RU,56.8471,105.2542,12.09,94,100,9.73,overcast clouds
22,Chuy,UY,-33.6971,-53.4616,64.13,71,0,1.34,clear sky
23,Bluff,NZ,-46.6,168.3333,58.53,75,10,1.95,clear sky
24,Kikwit,CD,-5.041,18.8162,73.99,88,89,1.1,overcast clouds
25,Santo Antonio Do Ica,BR,-3.1022,-67.9397,74.21,99,100,2.1,light rain
26,Saldanha,ZA,-33.0117,17.9442,62.96,73,7,5.39,clear sky
27,Pavilosta,LV,56.8879,21.1859,39.11,88,33,16.42,scattered clouds
28,Bredasdorp,ZA,-34.5322,20.0403,65.1,75,36,3.53,scattered clouds
29,Veshenskaya,RU,49.6303,41.7334,28.13,71,100,17.83,overcast clouds
30,Redencao,BR,-4.2258,-38.7306,74.57,95,99,1.59,overcast clouds
31,Praia Da Vitoria,PT,38.7333,-27.0667,60.76,87,87,9.24,overcast clouds
32,Mar Del Plata,AR,-38.0023,-57.5575,62.87,70,0,5.99,light rain
33,Melilla,ES,35.2937,-2.9383,59.38,88,75,13.8,broken clouds
34,Saint-Philippe,RE,-21.3585,55.7679,78.39,86,98,8.79,overcast clouds
35,Albany,US,42.6001,-73.9662,29.95,60,100,3.0,overcast clouds
36,Yellowknife,CA,62.456,-114.3525,18.41,60,100,5.01,overcast clouds
37,Kodiak,US,57.79,-152.4072,33.31,100,100,32.21,snow
38,Sao Filipe,CV,14.8961,-24.4956,70.54,71,100,7.9,overcast clouds
39,Nanortalik,GL,60.1432,-45.2371,29.03,81,72,6.49,broken clouds
40,Coquimbo,CL,-29.9533,-71.3436,58.73,94,75,8.05,broken clouds
41,Barrow,US,71.2906,-156.7887,3.22,72,20,19.57,few clouds
42,Ziro,IN,27.6333,93.8333,46.17,90,18,1.19,few clouds
43,Ngorongoro,TZ,-3.2397,35.4875,52.66,89,74,3.18,broken clouds
44,Tuktoyaktuk,CA,69.4541,-133.0374,-5.76,81,2,8.21,clear sky
45,Saskylakh,RU,71.9167,114.0833,-6.34,99,100,3.49,overcast clouds
46,Puerto Ayora,EC,-0.7393,-90.3518,80.31,78,97,11.79,overcast clouds
47,Buritizeiro,BR,-17.3511,-44.9622,81.88,51,86,5.19,overcast clouds
48,Bilibino,RU,68.0546,166.4372,-0.13,92,100,1.92,overcast clouds
49,Flinders,AU,-34.5833,150.8552,71.19,94,96,7.0,overcast clouds
50,Beringovskiy,RU,63.05,179.3167,7.23,85,40,6.71,scattered clouds
51,Avarua,CK,-21.2078,-159.775,84.25,79,75,6.91,broken clouds
52,Tasiilaq,GL,65.6145,-37.6368,26.76,78,100,12.55,overcast clouds
53,Teahupoo,PF,-17.8333,-149.2667,80.56,75,55,14.63,light rain
54,Ponta Do Sol,PT,32.6667,-17.1,60.06,79,23,4.45,few clouds
55,Esperance,AU,-33.8667,121.9,62.76,70,97,11.65,overcast clouds
56,Hithadhoo,MV,-0.6,73.0833,81.63,65,6,6.17,clear sky
57,Camana,PE,-16.6228,-72.7111,70.84,81,73,6.71,broken clouds
58,Shakawe,BW,-18.3667,21.85,68.68,67,35,4.54,scattered clouds
59,Viransehir,TR,37.2353,39.7631,39.07,62,0,8.23,clear sky
60,Avdon,RU,54.6667,55.7167,33.12,86,100,13.42,light snow
61,Svetlyy,RU,54.675,20.1347,44.65,75,49,16.6,scattered clouds
62,Kiama,AU,-34.6833,150.8667,71.38,95,97,1.99,overcast clouds
63,Busselton,AU,-33.65,115.3333,58.42,69,0,14.41,clear sky
64,Yulara,AU,-25.2406,130.9889,73.24,20,74,6.91,broken clouds
65,Port Hardy,CA,50.6996,-127.4199,44.04,96,100,7.76,light rain
66,Samarai,PG,-10.6167,150.6667,83.16,73,98,1.39,overcast clouds
67,Butaritari,KI,3.0707,172.7902,81.03,65,90,7.67,overcast clouds
68,Marsh Harbour,BS,26.5412,-77.0636,71.64,50,0,18.3,clear sky
69,Ucluelet,CA,48.9329,-125.5528,50.09,93,100,1.01,light rain
70,Adrar,MR,20.5022,-10.0711,78.06,12,7,2.91,clear sky
71,Plettenberg Bay,ZA,-34.0527,23.3716,67.51,58,65,4.81,broken clouds
72,Ust-Nera,RU,64.5667,143.2,-5.3,98,77,0.89,broken clouds
73,Cayenne,GF,4.9333,-52.3333,81.09,1,75,8.01,broken clouds
74,Tuatapere,NZ,-46.1333,167.6833,66.54,59,3,1.03,clear sky
75,Luderitz,NA,-26.6481,15.1594,64.65,68,0,5.75,clear sky
76,Hilo,US,19.7297,-155.09,80.33,61,0,11.5,clear sky
77,Marawi,PH,7.9986,124.2928,70.3,89,40,0.98,scattered clouds
78,Chokurdakh,RU,70.6333,147.9167,-7.58,97,85,5.28,overcast clouds
79,Severo-Kurilsk,RU,50.6789,156.125,33.26,90,79,25.7,light snow
80,Kathu,TH,7.9178,98.3332,86.7,89,5,6.46,clear sky
81,Camacari,BR,-12.6975,-38.3242,83.97,86,84,5.7,broken clouds
82,Tiksi,RU,71.6872,128.8694,-2.99,95,100,4.32,overcast clouds
83,Yakeshi,CN,49.2833,120.7333,9.36,82,17,2.8,few clouds
84,Maniitsoq,GL,65.4167,-52.9,24.31,73,88,6.8,overcast clouds
85,Zyryanka,RU,65.75,150.85,0.61,93,79,7.31,broken clouds
86,Norman Wells,CA,65.282,-126.8329,12.94,86,100,2.46,overcast clouds
87,Ust-Maya,RU,60.4167,134.5333,2.98,99,100,2.89,overcast clouds
88,Tezu,IN,27.9167,96.1667,67.05,59,9,4.72,clear sky
89,Gijon,ES,43.5357,-5.6615,60.24,88,94,3.69,overcast clouds
90,Hasaki,JP,35.7333,140.8333,55.29,75,90,13.82,overcast clouds
91,Cabo San Lucas,MX,22.8909,-109.9124,87.62,21,40,3.44,scattered clouds
92,Henties Bay,NA,-22.116,14.2845,64.78,89,1,6.46,clear sky
93,Valladolid,ES,41.5833,-4.6667,51.3,76,98,5.93,overcast clouds
94,Atuona,PF,-9.8,-139.0333,78.91,79,60,12.66,broken clouds
95,Jalu,LY,29.0331,21.5482,61.29,23,0,10.69,clear sky
96,Jamestown,US,42.097,-79.2353,20.71,63,100,19.57,overcast clouds
97,Kavieng,PG,-2.5744,150.7967,83.66,71,82,8.63,broken clouds
98,Port Keats,AU,-14.25,129.55,81.99,80,100,0.92,overcast clouds
99,Palana,RU,59.1167,159.9667,23.4,66,100,13.85,overcast clouds
100,Lata,PT,40.1629,-8.3327,57.07,60,100,9.33,overcast clouds
101,Kantilo,IN,20.35,85.1833,75.09,81,32,2.62,scattered clouds
102,Quelimane,MZ,-17.8786,36.8883,75.63,89,96,4.61,overcast clouds
103,Hobart,AU,-42.8794,147.3294,63.27,77,0,4.61,light rain
104,Elat,IL,29.5581,34.9482,57.81,57,0,10.71,clear sky
105,Hervey Bay,AU,-25.2986,152.8535,76.01,91,55,11.01,broken clouds
106,Ekhabi,RU,53.5102,142.9671,12.63,88,100,20.0,overcast clouds
107,Zhuzhou,CN,27.8333,113.15,50.61,91,71,3.18,broken clouds
108,Athabasca,CA,54.7169,-113.2854,32.25,89,100,4.36,overcast clouds
109,Lastoursville,GA,-0.8143,12.7287,75.54,86,85,1.39,light rain
110,Quatre Cocos,MU,-20.2078,57.7625,76.08,74,10,7.4,clear sky
111,Geraldton,AU,-28.7667,114.6,72.01,83,74,12.66,broken clouds
112,Qaanaaq,GL,77.484,-69.3632,9.82,93,100,5.06,overcast clouds
113,Mantua,IT,45.1667,10.7833,47.34,72,2,1.01,clear sky
114,Sao Gabriel Da Cachoeira,BR,-0.1303,-67.0892,73.63,98,100,2.37,light rain
115,Maura,NO,60.25,11.0167,47.05,62,0,8.05,clear sky
116,Cartagena,CO,10.3997,-75.5144,82.02,74,75,13.8,broken clouds
117,Bambous Virieux,MU,-20.3428,57.7575,76.21,73,10,7.11,clear sky
118,Khatanga,RU,71.9667,102.5,-21.44,100,92,4.88,overcast clouds
119,Natal,BR,-5.795,-35.2094,77.65,100,40,3.44,scattered clouds
120,Pisco,PE,-13.7,-76.2167,71.65,73,0,18.41,clear sky
121,Rio Grande,BR,-32.035,-52.0986,70.86,66,1,0.36,clear sky
122,New Norfolk,AU,-42.7826,147.0587,62.92,61,93,2.26,light rain
123,San Patricio,US,28.017,-97.5169,84.29,44,99,17.58,overcast clouds
124,Solginskiy,RU,61.05,41.3428,14.65,92,100,10.16,overcast clouds
125,Homer,US,59.6425,-151.5483,34.77,88,100,12.66,light snow
126,Juba,SS,4.8517,31.5825,77.54,71,99,7.27,overcast clouds
127,Lanzhou,CN,36.0564,103.7922,45.37,41,8,4.0,clear sky
128,Nikolskoye,RU,59.7035,30.7861,25.72,85,100,8.99,light snow
129,Three Hills,CA,51.7001,-113.2686,46.65,45,100,6.51,overcast clouds
130,Margate,GB,51.3813,1.3862,46.31,90,1,1.01,clear sky
131,Doka,SD,13.5167,35.7667,80.82,34,3,8.72,clear sky
132,Alugan,PH,12.2188,125.4808,80.17,84,100,10.13,overcast clouds
133,Ostrovnoy,RU,68.0531,39.5131,18.79,78,100,5.73,overcast clouds
134,Madera,US,37.1666,-119.8343,79.45,25,100,14.83,overcast clouds
135,Tessalit,ML,20.1986,1.0114,82.44,12,29,7.94,scattered clouds
136,Fortuna,US,40.5982,-124.1573,64.92,71,0,8.05,clear sky
137,Clyde River,CA,70.4692,-68.5914,-1.66,95,99,4.45,overcast clouds
138,Muriwai Beach,NZ,-36.8167,174.45,70.95,54,0,9.64,clear sky
139,Alice Springs,AU,-23.7,133.8833,69.22,32,1,0.0,clear sky
140,Leningradskiy,RU,69.3833,178.4167,-0.85,83,14,2.91,few clouds
141,Rota,ES,36.6224,-6.3586,61.21,72,75,24.16,broken clouds
142,Buala,SB,-8.145,159.5921,81.57,81,100,5.06,moderate rain
143,Nicoya,CR,10.1483,-85.452,89.35,39,88,7.67,overcast clouds
144,Lavrentiya,RU,65.5833,-171.0,15.78,77,69,3.0,broken clouds
145,Sheopur,IN,25.6667,76.7,78.35,13,2,2.1,clear sky
146,Kupang,ID,-10.1667,123.5833,78.76,86,89,2.86,overcast clouds
147,Carnarvon,AU,-24.8667,113.6333,68.07,88,2,5.75,clear sky
148,Faanui,PF,-16.4833,-151.75,82.02,72,18,12.77,few clouds
149,Vestmannaeyjar,IS,63.4427,-20.2734,43.45,84,100,26.49,overcast clouds
150,Ribeira Grande,PT,38.5167,-28.7,60.15,85,100,16.98,overcast clouds
151,Kamaishi,JP,39.2667,141.8833,42.46,66,30,14.18,scattered clouds
152,Molo,KE,-0.2479,35.7374,54.77,96,99,3.87,light rain
153,Apatlaco,MX,18.7833,-98.95,87.78,14,34,5.55,scattered clouds
154,Egvekinot,RU,66.3167,-179.1667,3.99,85,9,0.31,clear sky
155,Zhigalovo,RU,54.8097,105.1578,-0.06,100,96,3.83,overcast clouds
156,Cap Malheureux,MU,-19.9842,57.6142,76.46,85,0,1.99,clear sky
157,Katsuura,JP,35.1333,140.3,55.09,81,82,11.3,broken clouds
158,Los Llanos De Aridane,ES,28.6585,-17.9182,58.75,90,0,9.22,clear sky
159,Thompson,CA,55.7435,-97.8558,14.76,65,23,1.48,few clouds
160,Srednekolymsk,RU,67.45,153.6833,6.24,81,45,3.36,scattered clouds
161,Gizo,SB,-8.103,156.8419,82.85,76,75,5.61,light rain
162,Mundo Nuevo,MX,18.7,-95.5,74.08,67,7,15.75,clear sky
163,Mustasaari,FI,63.1142,21.6822,37.89,93,40,13.8,scattered clouds
164,Bengkulu,ID,-3.8004,102.2655,73.4,88,74,5.32,broken clouds
165,Corowa,AU,-36.0333,146.3833,73.0,57,85,4.7,overcast clouds
166,Cidreira,BR,-30.1811,-50.2056,69.31,80,0,7.52,clear sky
167,Upernavik,GL,72.7868,-56.1549,16.02,76,96,3.53,overcast clouds
168,Innisfail,AU,-17.5333,146.0333,79.45,75,31,3.44,scattered clouds
169,Arawa,PG,-6.2132,155.5367,84.45,72,93,4.09,overcast clouds
170,Verkh-Usugli,RU,52.7,115.1667,10.35,84,37,5.7,scattered clouds
171,Charters Towers,AU,-20.1,146.2667,77.88,66,4,2.17,clear sky
172,Nuuk,GL,64.1835,-51.7216,32.61,64,20,2.3,few clouds
173,Lerwick,GB,60.1545,-1.1494,46.4,87,4,17.63,clear sky
174,Maryville,US,35.7565,-83.9705,53.85,22,20,10.36,few clouds
175,Port Lincoln,AU,-34.7333,135.8667,66.76,80,20,8.32,few clouds
176,Georgetown,MY,5.4112,100.3354,80.53,83,20,0.0,few clouds
177,Pacific Grove,US,36.6177,-121.9166,66.42,63,0,8.05,clear sky
178,Ibra,OM,22.6906,58.5334,73.87,33,0,0.96,clear sky
179,Peniche,PT,39.3558,-9.3811,63.28,69,100,13.15,overcast clouds
180,Kaeo,NZ,-35.1,173.7833,73.33,64,2,2.91,clear sky
181,Santa Vitoria,BR,-18.8386,-50.1214,74.98,80,95,4.03,overcast clouds
182,Mpika,ZM,-11.8343,31.4529,62.85,98,95,4.27,light rain
183,La Libertad,EC,-2.2333,-80.9,80.26,83,75,8.05,broken clouds
184,Oranjemund,NA,-28.55,16.4333,63.09,67,0,1.83,clear sky
185,Pudem,RU,58.3044,52.1675,20.82,94,99,8.86,overcast clouds
186,Hermanus,ZA,-34.4187,19.2345,65.8,67,98,3.15,overcast clouds
187,Bada,RU,51.392,109.8717,15.57,97,95,3.69,overcast clouds
188,Waitati,NZ,-45.75,170.5667,63.81,75,0,8.9,light rain
189,Zharkent,KZ,44.1628,80.0,41.04,78,100,0.89,overcast clouds
190,Salalah,OM,17.0151,54.0924,77.09,50,0,1.14,clear sky
191,Souillac,MU,-20.5167,57.5167,76.91,79,11,7.02,few clouds
192,Wukari,NG,7.85,9.7833,79.66,16,6,4.83,clear sky
193,Qesarya,IL,32.5189,34.9046,50.34,79,0,4.85,clear sky
194,Bonthe,SL,7.5264,-12.505,78.35,85,81,3.2,light rain
195,Portland,US,45.5234,-122.6762,69.91,59,75,3.44,broken clouds
196,Saurimo,AO,-9.6608,20.3916,65.19,98,85,4.32,light rain
197,Camacha,PT,33.0833,-16.3333,56.62,77,20,4.61,few clouds
198,Castro,BR,-24.7911,-50.0119,64.36,79,5,0.45,clear sky
199,Salcedo,PH,12.8105,121.4674,79.02,82,48,6.08,scattered clouds
200,Kyra,RU,49.5776,111.9753,19.29,77,97,5.73,overcast clouds
201,Ubinskoye,RU,55.3068,79.6802,0.86,98,78,5.48,broken clouds
202,Guerrero Negro,MX,27.9769,-114.0611,69.46,53,100,12.28,overcast clouds
203,Ahipara,NZ,-35.1667,173.1667,69.82,57,0,5.53,clear sky
204,Lamar,US,33.6668,-95.5836,84.11,23,0,8.05,clear sky
205,Tabuk,PH,17.4189,121.4443,75.27,82,3,2.39,clear sky
206,Namatanai,PG,-3.6667,152.4333,81.9,78,99,5.35,light rain
207,Toluca,MX,19.2883,-99.6672,72.3,11,40,5.75,smoke
208,Dunda,TZ,-8.1167,34.25,64.96,97,72,3.24,broken clouds
209,Verkhnetulomskiy,RU,68.6073,31.7962,-3.87,100,80,0.85,broken clouds
210,Khandyga,RU,62.6667,135.6,0.03,86,87,3.38,overcast clouds
211,Codrington,AU,-38.2667,141.9667,65.41,69,86,8.43,overcast clouds
212,Umm Lajj,SA,25.0213,37.2685,78.03,23,62,25.81,broken clouds
213,Kostomuksha,RU,64.571,30.5767,17.46,81,95,4.59,overcast clouds
214,Oda,JP,35.1833,132.5,46.72,51,100,11.41,overcast clouds
215,Loandjili,CG,-4.7561,11.8578,80.22,88,95,5.06,light rain
216,Hirara,JP,24.8,125.2833,66.47,94,75,18.41,broken clouds
217,Makakilo City,US,21.3469,-158.0858,78.69,61,100,9.22,overcast clouds
218,Severodvinsk,RU,64.5635,39.8302,5.11,91,15,4.99,few clouds
219,Taos,US,36.4072,-105.5731,73.8,11,0,16.11,clear sky
220,Puerto Cabello,VE,10.4731,-68.0125,75.74,91,97,7.11,overcast clouds
221,Bethel,US,41.3712,-73.414,38.53,62,100,6.91,overcast clouds
222,Key West,US,24.5557,-81.7826,80.6,47,0,6.91,clear sky
223,Iqaluit,CA,63.7506,-68.5145,17.33,100,100,2.3,mist
224,Aykhal,RU,66.0,111.5,-2.0,100,100,4.97,overcast clouds
225,Saint George,US,37.1041,-113.5841,84.63,9,0,19.57,clear sky
226,Lazo,RU,43.3817,133.9014,33.26,66,43,10.56,scattered clouds
227,Touros,BR,-5.1989,-35.4608,80.1,83,50,10.36,scattered clouds
228,Ketchikan,US,55.3422,-131.6461,50.47,46,0,13.8,clear sky
229,Torbay,CA,47.6666,-52.7314,40.28,91,100,1.01,overcast clouds
230,Lagoa,PT,39.05,-27.9833,58.73,85,99,10.63,overcast clouds
231,East London,ZA,-33.0153,27.9116,70.54,81,76,19.39,broken clouds
232,Haines Junction,CA,60.7522,-137.5108,31.24,78,94,1.7,overcast clouds
233,Mayya,RU,61.7333,130.2811,2.52,89,92,5.88,overcast clouds
234,Saryg-Sep,RU,51.5,95.6,10.99,97,100,2.33,overcast clouds
235,Wicklow,IE,53.0,-6.4167,43.07,89,0,1.68,clear sky
236,Buta,CD,2.7858,24.73,79.5,58,100,2.71,overcast clouds
237,Saint-Augustin,CA,51.226,-58.6502,33.6,96,100,18.34,overcast clouds
238,Trat,TH,12.5,102.5,82.9,92,91,0.94,light rain
239,Collierville,US,35.042,-89.6645,57.79,29,0,6.91,clear sky
240,High Level,CA,58.5169,-117.136,30.45,85,98,3.42,overcast clouds
241,Broome,US,42.2506,-75.833,27.01,72,100,12.66,overcast clouds
242,Zhigansk,RU,66.7697,123.3711,3.63,98,98,2.66,overcast clouds
243,Teguldet,RU,57.3064,88.1667,-1.48,100,71,3.11,broken clouds
244,Coruripe,BR,-10.1256,-36.1756,79.0,83,87,9.62,overcast clouds
245,Kahului,US,20.8947,-156.47,86.02,39,40,19.57,scattered clouds
246,Manggar,ID,-2.8833,108.2667,79.11,83,68,5.68,broken clouds
247,Chima,IN,30.6854,76.0863,70.2,17,0,3.38,clear sky
248,Pevek,RU,69.7008,170.3133,-11.04,95,41,7.72,scattered clouds
249,Coolum Beach,AU,-26.5333,153.1,72.34,99,99,11.41,moderate rain
250,Sitka,US,57.0531,-135.33,44.49,70,0,6.91,clear sky
251,Xochistlahuaca,MX,16.7833,-98.25,88.41,26,74,9.55,broken clouds
252,Alofi,NU,-19.0595,-169.9187,80.11,80,100,16.91,moderate rain
253,Aljezur,PT,37.3191,-8.8033,59.31,72,100,18.39,overcast clouds
254,Padang,ID,-0.9492,100.3543,66.25,62,47,4.03,scattered clouds
255,Havre-Saint-Pierre,CA,50.2334,-63.5986,32.36,100,100,13.8,overcast clouds
256,Bowen,AU,-20.0167,148.2333,78.75,74,6,5.41,clear sky
257,Southbridge,US,42.0751,-72.0334,39.92,62,96,5.01,overcast clouds
258,Morgan City,US,29.6994,-91.2068,76.01,73,0,14.97,clear sky
259,Yumen,CN,40.2833,97.2,42.55,26,86,13.09,overcast clouds
260,Faya,SA,18.3851,42.4509,57.72,37,0,3.2,clear sky
261,Oistins,BB,13.0667,-59.5333,78.89,69,75,16.11,broken clouds
262,Mizdah,LY,31.4451,12.9801,65.53,25,56,7.34,broken clouds
263,Valer,NO,60.6785,11.8331,44.85,71,100,10.6,overcast clouds
264,Inhambane,MZ,-23.865,35.3833,74.03,86,5,7.2,clear sky
265,San Remo,IT,43.8182,7.7612,60.85,50,62,9.62,broken clouds
266,Husavik,IS,66.0449,-17.3389,23.99,66,45,4.43,scattered clouds
267,Nouakchott,MR,18.0858,-15.9785,64.33,81,82,13.35,broken clouds
268,Palmas,BR,-10.2128,-48.3603,78.67,83,40,5.75,light rain
269,Narsaq,GL,60.9167,-46.05,39.42,66,89,7.94,overcast clouds
270,Grindavik,IS,63.8424,-22.4338,39.67,87,100,13.8,overcast clouds
271,San Policarpo,PH,12.1791,125.5072,80.55,83,99,10.94,overcast clouds
272,Arraial Do Cabo,BR,-22.9661,-42.0278,77.31,90,7,7.31,moderate rain
273,Morondava,MG,-20.2833,44.2833,77.36,90,29,6.13,scattered clouds
274,Darab,IR,28.7519,54.5444,53.53,13,0,1.28,clear sky
275,Bambanglipuro,ID,-7.95,110.2833,76.12,88,85,4.56,overcast clouds
276,Kunya,NG,12.2233,8.5325,73.38,13,8,10.27,clear sky
277,Agadez,NE,19.75,10.25,72.09,5,0,9.44,clear sky
278,Tabou,CI,4.423,-7.3528,80.17,88,78,4.65,broken clouds
279,Weston-Super-Mare,GB,51.346,-2.9766,49.55,92,1,10.36,clear sky
280,Jos,NG,9.9167,8.9,68.97,17,3,6.51,clear sky
281,Praya,CV,14.9215,-23.5087,70.34,73,20,12.66,few clouds
282,Saint-Louis,SN,16.3333,-15.0,72.41,35,69,13.98,broken clouds
283,Sioux Lookout,CA,50.1001,-91.917,14.56,79,100,8.95,overcast clouds
284,Macherla,IN,16.4833,79.4333,79.36,72,29,4.94,scattered clouds
285,Bocanda,CI,7.0626,-4.4995,80.26,74,51,4.83,broken clouds
286,Saint-Denis,FR,48.9167,2.3333,56.21,53,0,8.05,clear sky
287,Morena,IN,26.4969,78.0,76.39,11,3,3.85,clear sky
288,Saeby,DK,57.3319,10.5225,42.73,86,100,21.74,overcast clouds
289,Champerico,GT,14.3,-91.9167,77.54,67,74,7.81,broken clouds
290,Chimore,BO,-16.9833,-65.1333,72.64,81,73,1.77,broken clouds
291,Dingle,PH,10.9995,122.6711,78.44,84,73,7.83,broken clouds
292,Mount Pleasant,US,32.7941,-79.8626,69.78,24,0,12.66,clear sky
293,Kaitangata,NZ,-46.2817,169.8464,62.98,67,4,3.04,clear sky
294,Yining,CN,29.0361,114.5636,50.9,91,39,2.04,scattered clouds
295,Klaksvik,FO,62.2266,-6.589,40.12,83,100,13.96,overcast clouds
296,Correntina,BR,-13.3433,-44.6367,78.21,51,69,1.66,broken clouds
297,West Bay,KY,19.3667,-81.4167,80.67,70,40,12.66,scattered clouds
298,Kholodnyy,RU,62.7167,147.95,-7.62,96,95,4.03,overcast clouds
299,Puerto Cabezas,NI,14.0351,-83.3888,82.36,78,40,9.22,scattered clouds
300,Marsa Matruh,EG,31.3525,27.2453,57.85,71,0,7.52,clear sky
301,Kavaratti,IN,10.5669,72.642,82.27,74,6,6.42,clear sky
302,Bantry,IE,51.6833,-9.45,46.78,92,1,6.62,clear sky
303,Sandakan,MY,5.8402,118.1179,75.56,92,100,3.11,overcast clouds
304,Chamba,IN,32.5667,76.1333,63.86,31,0,10.27,clear sky
305,Bilma,NE,18.6853,12.9164,71.96,10,0,6.4,clear sky
306,Longyearbyen,SJ,78.2186,15.6401,8.44,61,36,13.8,scattered clouds
307,Roald,NO,62.5833,6.1333,48.0,81,75,21.85,broken clouds
308,Zhangjiakou,CN,40.81,114.8794,36.16,38,9,4.27,clear sky
309,Chiredzi,ZW,-21.05,31.6667,66.0,97,12,0.96,few clouds
310,Erie,US,42.7667,-78.6664,21.58,66,100,13.0,overcast clouds
311,Asau,RO,46.4333,26.4,33.28,55,14,1.99,few clouds
312,Bridlington,GB,54.0831,-0.1919,47.52,98,25,4.0,scattered clouds
313,Tilichiki,RU,60.4667,166.1,8.13,81,100,10.22,overcast clouds
314,Palu,ID,-0.8917,119.8707,76.82,85,99,2.51,overcast clouds
315,Vardo,NO,70.3705,31.1107,26.55,51,100,7.47,light snow
316,Morant Bay,JM,17.8815,-76.4093,80.71,81,82,12.3,broken clouds
317,Cravo Norte,CO,6.3017,-70.2041,89.98,40,100,9.33,overcast clouds
318,Zinder,NE,13.8072,8.9881,72.46,10,2,11.07,clear sky
319,Flin Flon,CA,54.7682,-101.865,18.1,67,99,8.66,overcast clouds
320,Greystones,IE,53.1408,-6.0631,48.9,89,0,3.38,clear sky
321,Bathsheba,BB,13.2167,-59.5167,79.41,69,75,16.11,broken clouds
322,Noyabrsk,RU,63.1994,75.4507,13.48,94,100,12.57,overcast clouds
323,Viedma,AR,-40.8135,-62.9967,64.26,36,0,9.82,clear sky
324,Comodoro Rivadavia,AR,-45.8667,-67.5,66.06,30,20,17.27,dust
325,Talnakh,RU,69.4865,88.3972,3.07,97,100,5.28,overcast clouds
326,Nome,US,64.5011,-165.4064,28.47,64,0,8.05,clear sky
327,Pekan,MY,3.4836,103.3996,77.7,87,5,5.77,clear sky
328,Kristiansund,NO,63.1115,7.732,42.85,70,100,36.82,light rain
329,Kieta,PG,-6.2167,155.6333,83.55,74,96,5.35,overcast clouds
330,Esmeraldas,BR,-19.7625,-44.3139,81.46,80,24,2.75,few clouds
331,San Ramon De La Nueva Oran,AR,-23.1322,-64.326,77.43,56,0,1.19,clear sky
332,Tiznit,MA,29.5833,-9.5,62.58,46,100,4.21,overcast clouds
333,Prince Rupert,CA,54.3161,-130.3201,47.25,73,24,8.12,few clouds
334,Makarov,RU,48.6333,142.8,27.28,70,100,16.11,overcast clouds
335,Lompoc,US,34.6391,-120.4579,64.62,65,100,17.27,overcast clouds
336,Roma,US,43.2128,-75.4557,23.68,76,100,23.02,overcast clouds
337,Nabire,ID,-3.3667,135.4833,76.08,89,100,4.99,overcast clouds
338,Ridgecrest,US,35.6225,-117.6709,80.46,8,40,21.85,scattered clouds
339,Pontian Kecil,MY,1.4801,103.3899,77.43,88,84,5.17,broken clouds
340,Mahajanga,MG,-15.7167,46.3167,79.99,81,100,3.15,light rain
341,Oktyabrskiy,RU,54.4815,53.471,28.96,92,99,8.3,overcast clouds
342,San Quintin,MX,30.4833,-115.95,64.02,63,50,5.64,scattered clouds
343,Berlevag,NO,70.8578,29.0864,15.8,72,100,7.65,light snow
344,Dubbo,AU,-32.25,148.6167,69.93,78,75,8.05,broken clouds
345,Ust-Kulom,RU,61.6864,53.6902,29.1,96,100,5.1,overcast clouds
346,Hazorasp,UZ,41.3194,61.0742,39.04,46,32,3.62,scattered clouds
347,Beyneu,KZ,45.3167,55.2,42.49,83,100,9.35,overcast clouds
348,Komsomolskiy,UZ,40.4272,71.7189,46.09,64,5,0.81,clear sky
349,Balikpapan,ID,-1.2675,116.8289,76.19,94,40,0.0,scattered clouds
350,Baran,IN,25.1,76.5167,78.94,15,3,3.33,clear sky
351,Boueni,YT,-12.9025,45.0761,76.98,77,78,1.39,broken clouds
352,Batagay,RU,67.6333,134.6333,-1.35,91,44,3.49,scattered clouds
353,Vila Velha,BR,-20.3297,-40.2925,80.55,88,20,12.66,few clouds
354,Kindu,CD,-2.95,25.95,70.32,99,100,2.8,moderate rain
355,Coahuayana,MX,18.7333,-103.6833,85.64,34,14,6.69,few clouds
356,Ossora,RU,59.2353,163.0719,26.82,95,100,17.4,snow
357,Rawson,AR,-43.3002,-65.1023,67.91,25,0,7.49,clear sky
358,Torrox,ES,36.7579,-3.9523,60.66,94,96,5.35,overcast clouds
359,Okha,RU,53.5739,142.9478,13.06,87,100,20.13,overcast clouds
360,Kudahuvadhoo,MV,2.6708,72.8944,80.92,71,73,5.3,broken clouds
361,Huarmey,PE,-10.0681,-78.1522,73.45,76,96,10.27,overcast clouds
362,Belmonte,BR,-15.8631,-38.8828,78.17,80,7,6.13,clear sky
363,Yerbogachen,RU,61.2767,108.0108,14.04,95,100,8.14,overcast clouds
364,Shirokiy,RU,49.758,129.523,22.8,86,20,2.17,few clouds
365,Omboue,GA,-1.5746,9.2618,78.84,91,82,7.14,light rain
366,Saint Cloud,US,45.5608,-94.1625,29.14,31,20,9.22,few clouds
367,Srandakan,ID,-7.9386,110.2506,76.26,88,84,4.79,broken clouds
368,Antibes,FR,43.5624,7.1278,59.63,34,0,9.22,clear sky
369,Grand Gaube,MU,-20.0064,57.6608,77.4,85,1,1.99,clear sky
370,Majholi,IN,23.5,79.9167,75.81,15,7,1.97,clear sky
371,Ambatolampy,MG,-19.3833,47.4167,59.9,95,60,2.66,broken clouds
372,Soyo,AO,-6.1349,12.3689,80.76,91,100,11.25,overcast clouds
373,Lebu,CL,-37.6167,-73.65,55.74,80,0,10.74,clear sky
374,Lugui,PH,14.1131,122.7935,77.36,89,100,5.37,overcast clouds
375,Flagstaff,US,35.1981,-111.6513,68.59,13,0,23.02,clear sky
376,Vanavara,RU,60.34,102.2797,8.22,95,99,7.54,overcast clouds
377,Sao Paulo De Olivenca,BR,-3.3783,-68.8725,73.26,99,100,2.24,overcast clouds
378,Antalaha,MG,-14.9003,50.2788,75.06,91,11,4.45,few clouds
379,Olafsvik,IS,64.8945,-23.7142,32.83,72,100,22.95,overcast clouds
380,Floro,NO,61.5996,5.0328,46.24,100,75,13.8,broken clouds
381,Provideniya,RU,64.3833,-173.3,17.71,73,0,2.24,clear sky
382,Vila Franca Do Campo,PT,37.7167,-25.4333,59.41,85,30,9.46,scattered clouds
383,Seddon,AU,-37.8068,144.8916,74.77,55,75,8.05,light rain
384,Fort Nelson,CA,58.8053,-122.7002,33.39,44,40,0.0,scattered clouds
385,Kangaatsiaq,GL,68.3065,-53.4641,18.25,75,77,13.62,broken clouds
386,Half Moon Bay,US,37.4636,-122.4286,67.05,63,0,26.46,clear sky
387,Chicama,PE,-7.8447,-79.1469,66.74,64,91,6.71,overcast clouds
388,Constitucion,CL,-35.3333,-72.4167,57.58,78,84,13.71,broken clouds
389,Abu Zabad,SD,12.35,29.25,72.19,13,71,15.95,broken clouds
390,Kuytun,RU,54.3419,101.5036,-3.71,99,25,4.79,scattered clouds
391,Seoul,KR,37.5683,126.9778,36.84,25,7,1.03,clear sky
392,Barvinkove,UA,48.9097,37.0205,29.21,55,46,15.57,scattered clouds
393,Sunrise Manor,US,36.2111,-115.0731,89.91,6,0,19.57,clear sky
394,Havoysund,NO,70.9963,24.6622,19.63,69,33,5.19,scattered clouds
395,Hobyo,SO,5.3505,48.5268,79.9,64,100,12.8,overcast clouds
396,Kenai,US,60.5544,-151.2583,40.03,62,100,17.27,overcast clouds
397,Sovik,NO,65.9333,12.4667,34.65,92,100,29.97,snow
398,San Cristobal,VE,7.7669,-72.225,73.58,74,95,2.95,overcast clouds
399,Barahona,DO,18.2085,-71.1008,78.62,94,75,11.5,broken clouds
400,Ust-Ishim,RU,57.6935,71.1665,4.26,98,81,5.35,broken clouds
401,Nambucca Heads,AU,-30.65,153.0,70.16,86,100,2.62,light rain
402,Dunedin,NZ,-45.8742,170.5036,63.81,75,0,7.0,clear sky
403,Denpasar,ID,-8.65,115.2167,76.71,100,20,1.14,few clouds
404,Tanout,NE,14.9709,8.8879,71.51,9,1,12.24,clear sky
405,Port Macquarie,AU,-31.4333,152.9167,67.89,100,100,0.0,moderate rain
406,Tarakan,ID,3.3,117.6333,74.7,94,20,0.0,few clouds
407,Batouri,CM,4.4333,14.3667,74.82,32,52,3.36,broken clouds
408,Paita,PE,-5.0892,-81.1144,74.1,74,100,13.13,overcast clouds
409,Kloulklubed,PW,7.0419,134.2556,81.1,78,92,19.66,overcast clouds
410,Mitzic,GA,0.7821,11.549,71.46,91,44,3.94,scattered clouds
411,Itinga,BR,-16.6131,-41.7653,80.15,63,81,4.61,broken clouds
412,Ugep,NG,5.8086,8.0812,81.23,74,28,5.84,scattered clouds
413,Almansa,ES,38.8692,-1.0971,43.14,91,75,6.55,broken clouds
414,Loa Janan,ID,-0.583,117.095,73.8,98,100,1.36,overcast clouds
415,Hualmay,PE,-11.0964,-77.6139,72.61,77,97,10.38,overcast clouds
416,Hays,US,30.0502,-98.0336,86.14,25,47,4.0,scattered clouds
417,Ilulissat,GL,69.2167,-51.1,20.07,68,65,9.17,broken clouds
418,San Luis,AR,-33.295,-66.3356,68.41,30,4,5.64,clear sky
419,Sawtell,AU,-30.3833,153.1,70.18,94,75,0.0,moderate rain
420,Meulaboh,ID,4.1363,96.1285,76.62,86,95,3.15,overcast clouds
421,Szamotuly,PL,52.612,16.5779,46.98,87,20,8.21,few clouds
422,Okhotsk,RU,59.3833,143.3,4.59,75,1,17.74,clear sky
423,Tsumeb,NA,-19.2333,17.7167,67.08,38,1,3.4,clear sky
424,Zenzeli,RU,45.9241,47.0474,38.82,60,99,19.1,light rain
425,Akcakoca,TR,41.0866,31.1162,47.16,74,82,3.74,broken clouds
426,Jaciara,BR,-15.9653,-54.9683,73.85,91,91,2.98,light rain
427,Escarcega,MX,18.6089,-90.7454,83.5,45,65,0.56,broken clouds
428,Bonito,BR,-21.1211,-56.4819,74.73,69,18,0.74,few clouds
429,Harrisonburg,US,38.4496,-78.8689,36.27,45,0,20.71,clear sky
430,Taoudenni,ML,22.6783,-3.9836,87.28,26,23,5.21,few clouds
431,Channel-Port Aux Basques,CA,47.5702,-59.1367,34.74,98,100,10.22,light snow
432,Beitbridge,ZW,-22.2167,30.0,70.63,80,14,5.99,few clouds
433,Gabu,GW,12.2833,-14.2167,80.38,19,68,5.44,broken clouds
434,Lisakovsk,KZ,52.5369,62.4936,22.23,93,27,13.18,scattered clouds
435,Osvaldo Cruz,BR,-21.7967,-50.8786,72.66,87,55,2.64,broken clouds
436,Ixtapa,MX,20.7,-105.2,76.23,69,0,12.66,clear sky
437,Kristiinankaupunki,FI,62.2743,21.376,38.8,89,100,22.32,moderate rain
438,Eenhana,NA,-17.4667,16.3333,67.82,42,7,5.82,clear sky
439,Severnoye,RU,56.3491,78.3619,0.1,99,37,4.99,scattered clouds
440,Hamilton,US,39.1834,-84.5333,39.76,49,0,9.22,clear sky
441,Miraflores,MX,19.2167,-98.8083,76.03,14,22,3.18,few clouds
442,Sao Joao Da Barra,BR,-21.6403,-41.0511,77.77,90,0,11.18,clear sky
443,Doha,QA,25.2867,51.5333,66.18,46,0,17.27,clear sky
444,Te Anau,NZ,-45.4167,167.7167,66.31,55,5,1.25,clear sky
445,Kelso,US,46.1468,-122.9084,69.76,71,0,4.61,clear sky
446,Asfi,MA,32.2994,-9.2372,67.41,54,78,3.24,broken clouds
447,Lorengau,PG,-2.0226,147.2712,82.81,75,96,5.3,overcast clouds
448,Pangkalanbuun,ID,-2.6833,111.6167,73.87,97,95,2.26,overcast clouds
449,Yuancheng,CN,36.652,107.7896,37.06,54,7,4.43,clear sky
450,Aloleng,PH,16.1307,119.7824,80.26,75,63,5.5,broken clouds
451,Millau,FR,44.0833,2.9167,51.93,54,22,4.83,few clouds
452,Golden,US,39.7555,-105.2211,74.55,28,75,6.91,broken clouds
453,Krasnogvardeyskiy,RU,57.3793,62.3195,23.41,92,100,11.25,overcast clouds
454,La Roda,ES,39.2167,-2.15,45.0,84,92,11.65,overcast clouds
455,Swan Hill,AU,-35.3378,143.5544,73.69,43,100,4.94,overcast clouds
456,Praia,CV,14.9215,-23.5087,70.34,73,20,12.66,few clouds
457,Lasa,IT,46.6166,10.7002,43.68,71,6,0.34,clear sky
458,Ankazoabo,MG,-22.2833,44.5167,71.76,87,38,5.64,scattered clouds
459,Namibe,AO,-15.1961,12.1522,71.76,71,94,10.76,overcast clouds
460,Qabaqcol,AZ,41.72,46.2647,42.84,50,24,6.42,few clouds
461,Ballina,AU,-28.8667,153.5667,70.02,99,98,5.26,moderate rain
462,Itaituba,BR,-4.2761,-55.9836,76.28,97,90,1.3,overcast clouds
463,Conceicao Da Barra,BR,-18.5933,-39.7322,77.86,82,12,8.32,few clouds
464,Burns Lake,CA,54.2331,-125.7533,44.02,72,100,3.24,overcast clouds
465,Kangasala,FI,61.4638,24.076,34.07,91,100,15.08,snow
466,Sur,OM,22.5667,59.5289,79.59,47,0,3.36,clear sky
467,Diamantino,BR,-14.4086,-56.4461,75.81,91,96,3.33,overcast clouds
468,Shar,KZ,49.5886,81.0453,29.68,86,100,13.78,overcast clouds
469,Cherskiy,RU,68.75,161.3,3.99,91,99,8.5,overcast clouds
470,Khani,GE,41.9563,42.9566,27.97,98,92,1.81,snow
471,Yar-Sale,RU,66.8333,70.8333,12.22,93,100,16.24,overcast clouds
472,Derzhavinsk,KZ,51.1,66.3167,12.88,99,88,9.93,overcast clouds
473,Rocha,UY,-34.4833,-54.3333,62.85,54,0,4.18,clear sky
474,Waipawa,NZ,-41.4122,175.5153,56.95,77,95,7.7,overcast clouds
475,Kalmunai,LK,7.4167,81.8167,78.28,85,17,3.85,few clouds
476,Klyuchi,RU,52.2667,79.1667,26.82,97,98,4.18,overcast clouds
477,Inta,RU,66.0317,60.1659,22.44,81,100,10.47,overcast clouds
478,Ryotsu,JP,38.0833,138.4333,45.91,48,66,17.54,broken clouds
479,Camapua,BR,-19.5314,-54.0439,75.06,83,82,1.32,broken clouds
480,Pochutla,MX,15.7432,-96.4661,84.81,51,100,6.53,overcast clouds
481,Chifeng,CN,42.2683,118.9636,35.47,31,3,6.76,clear sky
482,Krasnoborsk,RU,61.5598,45.934,14.38,89,100,13.29,overcast clouds
483,Isangel,VU,-19.55,169.2667,82.62,70,51,7.7,broken clouds
484,Maceio,BR,-9.6658,-35.7353,78.24,88,75,2.3,broken clouds
485,Jiangyou,CN,31.7667,104.7167,55.24,81,90,2.62,overcast clouds
486,Nouadhibou,MR,20.931,-17.0347,64.38,94,100,4.61,overcast clouds
487,Ancud,CL,-41.8697,-73.8203,54.23,80,47,14.25,scattered clouds
488,Mount Isa,AU,-20.7333,139.5,83.97,23,0,12.66,clear sky
489,Siavonga,ZM,-16.5382,28.7088,74.37,90,93,4.63,light rain
490,Kirakira,SB,-10.4544,161.9205,83.82,74,100,2.13,overcast clouds
491,Ouro Preto Do Oeste,BR,-10.7481,-62.2158,74.75,94,100,1.74,moderate rain
492,Taicheng,CN,38.731,113.228,35.01,27,0,4.12,clear sky
493,Tautira,PF,-17.7333,-149.15,81.36,75,65,14.56,light rain
494,Paamiut,GL,61.994,-49.6678,25.07,81,92,4.5,overcast clouds
495,Avera,US,33.194,-82.5271,65.71,39,5,13.22,clear sky
496,Cortez,US,37.3489,-108.5859,73.04,10,0,10.36,clear sky
497,Indramayu,ID,-6.3264,108.32,77.43,88,81,4.92,broken clouds
498,Filingue,NE,14.3521,3.3168,81.75,7,3,12.71,clear sky
499,Northampton,US,40.8754,-75.2499,33.76,54,95,1.99,overcast clouds
500,Rio Gallegos,AR,-51.6226,-69.2181,50.05,43,20,14.97,few clouds
501,Forestville,US,38.8451,-76.875,38.86,47,75,14.97,broken clouds
502,Ambulu,ID,-8.345,113.6058,75.99,86,86,2.73,overcast clouds
503,Chake Chake,TZ,-5.2459,39.7666,80.22,81,41,5.21,scattered clouds
504,Ilek,RU,51.5271,53.3831,32.09,92,100,11.7,overcast clouds
505,Erzin,TR,36.9559,36.2,44.85,62,0,2.33,clear sky
506,Iida,JP,35.5197,137.8207,50.04,57,80,3.0,broken clouds
507,Irtyshskiy,RU,58.3333,68.1333,13.77,94,100,11.99,overcast clouds
508,Ust-Barguzin,RU,53.45,108.9833,6.24,93,75,4.74,broken clouds
509,Hot Springs,US,34.5037,-93.0552,64.8,35,0,6.91,clear sky
510,Kokkola,FI,63.8385,23.1307,26.76,92,100,10.36,snow
511,Mehran,IR,33.1222,46.1646,54.14,36,0,9.8,clear sky
512,Guymon,US,36.6828,-101.4816,66.2,26,0,12.66,clear sky
513,Nueve De Julio,AR,-35.4444,-60.8831,64.58,58,0,1.57,clear sky
514,Itoman,JP,26.1247,127.6694,64.42,77,75,16.11,broken clouds
515,Campoverde,PE,-8.4753,-74.8058,78.49,95,82,3.22,broken clouds
516,Sredniy Ikorets,RU,51.0675,39.7584,25.68,69,99,16.96,overcast clouds
517,Aksu,CN,41.1231,80.2644,48.45,45,85,2.33,overcast clouds
518,Yangjiang,CN,21.85,111.9667,64.42,83,99,8.28,overcast clouds
519,Sakakah,SA,29.9697,40.2064,51.37,20,0,5.7,clear sky
520,Fukue,JP,32.6881,128.8419,55.76,67,75,1.14,broken clouds
521,Atagay,RU,55.1033,99.3875,5.38,99,85,2.77,overcast clouds
522,Vanderhoof,CA,54.0166,-124.0198,41.67,68,100,4.36,overcast clouds
523,Pastavy,BY,55.1168,26.8326,32.56,63,100,12.68,overcast clouds
524,Kayes,ML,14.0,-11.0,93.94,13,95,5.44,overcast clouds
525,Aberdeen,GB,57.1437,-2.0981,47.5,93,11,1.14,few clouds
526,Mahon,ES,39.8885,4.2658,50.56,100,0,8.05,clear sky
527,Savannah Bight,HN,16.45,-85.85,77.58,77,99,11.81,overcast clouds
528,Ostoros,HU,47.8667,20.4333,41.86,40,9,1.23,clear sky
529,Afsin,TR,38.2477,36.914,31.62,65,13,1.54,few clouds
530,Kushima,JP,31.4583,131.2333,55.62,69,100,9.19,light rain
531,Isparta,TR,38.0,31.0,37.81,56,1,4.0,clear sky
532,Campos,BR,-21.75,-41.3,75.02,95,15,1.88,few clouds
533,Benicarlo,ES,40.4165,0.4271,52.9,74,31,6.76,scattered clouds
534,Redditch,GB,52.3065,-1.9457,50.34,83,97,2.08,overcast clouds
535,Nexo,DK,55.0607,15.1306,42.89,87,15,20.6,few clouds
536,Wasilla,US,61.5814,-149.4394,42.01,46,20,14.97,few clouds
537,Vila Do Maio,CV,15.1333,-23.2167,70.59,73,99,14.03,overcast clouds
538,Carutapera,BR,-1.195,-46.02,76.57,90,100,5.88,moderate rain
539,Talakan,RU,50.3167,130.3667,20.26,86,64,1.07,broken clouds
540,Port-Gentil,GA,-0.7193,8.7815,81.48,84,83,14.16,light rain
541,Maralal,KE,1.0968,36.698,60.31,86,79,3.67,light rain
542,Kerema,PG,-7.9631,145.7785,82.56,74,51,3.69,broken clouds
543,Muisne,EC,0.6,-80.0333,79.92,78,89,2.66,overcast clouds
544,Tecoanapa,MX,16.5167,-98.75,83.64,50,82,7.96,broken clouds
545,Tretten,NO,61.3142,10.3007,40.59,62,100,9.31,overcast clouds
546,Serenje,ZM,-13.2325,30.2352,62.51,98,100,4.43,light rain
547,Goderich,CA,43.7501,-81.7165,23.92,58,100,23.02,overcast clouds
548,Uyemskiy,RU,64.4743,40.8524,5.05,84,20,2.24,few clouds
549,Aasiaat,GL,68.7098,-52.8699,19.22,79,59,14.36,broken clouds
550,Hami,CN,42.8,93.45,48.11,37,100,14.67,overcast clouds
551,Wau,SS,7.7029,27.9953,82.58,12,94,3.98,overcast clouds
552,Costinesti,RO,43.95,28.6333,38.44,59,92,6.91,overcast clouds
553,Malatya,TR,38.5,38.0,26.65,69,0,3.44,clear sky
554,Ngunguru,NZ,-35.6167,174.5,65.95,67,9,7.92,clear sky
555,Nizwa,OM,22.9333,57.5333,75.13,27,0,0.36,clear sky
556,Taree,AU,-31.9,152.4667,72.1,100,40,4.61,light rain
557,Xinpu,CN,34.5997,119.1594,41.56,62,75,5.77,broken clouds
558,Otradnoye,RU,59.7775,30.8181,26.56,85,100,8.97,light snow
559,Buraydah,SA,26.326,43.975,59.45,27,0,9.42,clear sky
560,Ahuimanu,US,21.4447,-157.8378,79.86,68,75,8.05,broken clouds
561,Arlit,NE,18.7369,7.3853,76.05,6,10,6.31,clear sky
562,Kamenka,RU,51.3223,42.7678,23.72,85,100,19.35,overcast clouds
563,Aklavik,CA,68.2191,-135.0107,3.97,83,92,3.44,overcast clouds
564,Sheregesh,RU,52.9209,87.9869,19.92,96,100,3.65,light snow
565,Williston,US,48.147,-103.618,49.8,30,68,8.01,broken clouds
566,Mason City,US,43.1536,-93.201,32.27,46,0,12.66,clear sky
567,Thaba-Tseka,LS,-29.522,28.6084,48.51,64,27,3.71,scattered clouds
568,Kalutara,LK,6.5831,79.9593,76.64,89,4,4.16,clear sky
569,Playa Vicente,MX,17.8333,-95.8167,89.19,14,46,6.11,scattered clouds
570,Karcsa,HU,48.3113,21.8054,40.24,43,20,3.27,few clouds
571,Dolinsk,RU,47.35,142.8,29.35,77,100,18.01,overcast clouds
572,Morro Bay,US,35.3658,-120.8499,67.08,71,50,7.0,scattered clouds
573,Muros,ES,42.7762,-9.0603,56.08,83,100,5.26,overcast clouds
574,Harlingen,US,26.1906,-97.6961,80.69,44,0,18.41,clear sky
575,Silver City,US,32.7701,-108.2803,74.91,9,0,13.8,clear sky
576,Puertollano,ES,38.6871,-4.1073,47.19,86,77,4.47,broken clouds
577,Mungwi,ZM,-10.1732,31.3694,62.26,97,56,2.53,broken clouds
578,Sola,VU,-13.8833,167.55,82.78,72,98,11.27,overcast clouds
579,Nazilli,TR,37.9163,28.3223,49.23,53,19,2.93,few clouds
580,Thinadhoo,MV,0.5333,72.9333,81.61,64,19,5.53,few clouds
581,Baruun-Urt,MN,46.6806,113.2792,28.38,34,95,4.05,overcast clouds
582,Laibin,CN,23.7,109.2667,56.03,79,98,5.37,overcast clouds
583,Buchanan,LR,5.8808,-10.0467,79.79,89,99,5.26,overcast clouds
584,Tahoua,NE,14.8888,5.2692,77.23,7,2,11.77,clear sky
585,Moree,AU,-29.4667,149.85,73.42,73,100,6.91,overcast clouds
586,Blackwater,AU,-23.5833,148.8833,75.83,62,45,3.71,scattered clouds
587,Sedalia,US,38.7045,-93.2283,46.31,36,0,9.22,clear sky
588,Canton,CN,23.1167,113.25,58.95,69,95,9.86,light rain
589,Chulman,RU,56.8479,124.9104,13.32,95,100,3.4,overcast clouds
590,Hsinchu,TW,24.8036,120.9686,64.85,94,97,5.01,light rain
591,Manavalakurichi,IN,8.1333,77.3,78.48,82,0,0.49,clear sky
592,Lodwar,KE,3.1191,35.5973,85.62,47,87,8.46,overcast clouds
593,Gidole,ET,5.65,37.3667,63.14,57,45,1.95,scattered clouds
594,Gorontalo,ID,0.5412,123.0595,76.5,91,99,1.5,overcast clouds
595,Bobcaygeon,CA,44.5462,-78.542,16.88,65,100,13.96,overcast clouds
596,Leeton,AU,-34.5667,146.4,69.89,56,85,7.34,overcast clouds
597,Atasu,KZ,48.6814,71.6433,23.68,97,95,8.88,overcast clouds
598,Yenagoa,NG,4.9247,6.2642,79.09,88,68,3.65,broken clouds
599,Kakori,IN,26.8833,80.8,69.75,68,0,0.0,haze
600,Kijang,KR,35.2442,129.2139,46.13,46,97,11.39,overcast clouds
601,Birecik,TR,37.0294,37.9903,40.21,54,0,4.29,clear sky
602,Tamandare,BR,-8.7597,-35.1047,78.26,86,83,7.31,moderate rain
603,Puerto Narino,CO,-3.7703,-70.3831,72.43,99,100,1.43,overcast clouds
604,Nizhniy Baskunchak,RU,48.2198,46.8311,33.19,68,98,16.64,overcast clouds
605,Tarko-Sale,RU,64.9225,77.785,8.06,95,81,10.45,broken clouds
606,Richards Bay,ZA,-28.783,32.0377,72.3,82,94,2.91,light rain
607,Belyy Yar,RU,53.6039,91.3903,8.49,78,100,2.24,overcast clouds
608,Nanning,CN,22.8167,108.3167,59.45,81,98,3.76,overcast clouds
609,Larsnes,NO,62.2028,5.5773,48.61,84,100,22.26,overcast clouds
610,Nampula,MZ,-15.1165,39.2666,73.35,94,40,8.05,scattered clouds
611,Sinnamary,GF,5.3833,-52.95,77.56,87,96,13.0,overcast clouds
612,Parry Sound,CA,45.3501,-80.033,19.45,58,100,12.75,overcast clouds
613,Tura,IN,25.5198,90.2201,68.94,59,1,4.07,clear sky
614,Port Blair,IN,11.6667,92.75,78.84,89,20,2.3,mist
615,Oudtshoorn,ZA,-33.5907,22.2014,59.36,34,30,4.85,scattered clouds
616,Gotsu,JP,35.0,132.2167,47.68,51,100,11.61,overcast clouds
617,Almaty,KZ,43.25,76.95,39.11,87,75,4.47,broken clouds
618,Sumkino,RU,58.1108,68.3244,13.37,95,100,10.36,overcast clouds
619,Saint-Francois,FR,46.4154,3.9054,43.68,87,0,0.0,clear sky
620,Sokoto,NG,13.0609,5.239,80.29,10,5,11.3,clear sky
621,Cabinda,AO,-5.55,12.2,80.22,93,81,9.33,light rain
622,Swinoujscie,PL,53.9105,14.2471,44.47,85,32,14.79,scattered clouds
623,Chabahar,IR,25.2919,60.643,77.74,71,0,14.0,clear sky
624,Qasigiannguit,GL,68.8193,-51.1922,20.17,69,47,8.48,scattered clouds
625,Shuiji,CN,27.4214,118.345,51.84,95,100,2.15,overcast clouds
626,Sanary-Sur-Mer,FR,43.1178,5.8001,53.55,49,49,5.3,scattered clouds
627,Marzuq,YE,14.4,46.4667,65.12,29,5,3.49,clear sky
628,Mount Gambier,AU,-37.8333,140.7667,62.51,88,37,6.91,scattered clouds
629,Vertientes,CU,21.2594,-78.1464,75.81,42,29,14.74,scattered clouds
630,Cabra,ES,37.4725,-4.4421,55.65,73,97,4.32,overcast clouds
631,Tazovskiy,RU,67.4667,78.7,-9.24,99,35,8.34,scattered clouds
632,Shima,CN,24.4478,117.8111,53.62,70,100,6.29,overcast clouds
633,Itupiranga,BR,-5.1347,-49.3267,77.32,95,100,1.83,light rain
634,Albesti,RO,47.7,27.0667,38.17,47,31,4.81,scattered clouds
635,Linhai,CN,28.85,121.1167,50.94,83,100,1.41,overcast clouds
636,Ponta Delgada,PT,37.7333,-25.6667,59.72,88,75,10.36,broken clouds
637,Shubarkuduk,KZ,49.1447,56.4872,35.29,89,100,21.5,overcast clouds
638,Sambava,MG,-14.2667,50.1667,76.14,91,30,5.26,scattered clouds
639,Sovetskiy,RU,61.3614,63.5842,22.51,92,100,14.09,overcast clouds
640,Sao Miguel Do Araguaia,BR,-13.275,-50.1628,76.41,83,50,3.33,scattered clouds
641,Talaya,RU,61.3833,152.75,-4.25,97,100,5.06,overcast clouds
642,Tucurui,BR,-3.7661,-49.6725,75.97,94,98,2.62,overcast clouds
643,Vidim,RU,56.4088,103.1106,4.42,98,100,4.92,overcast clouds
644,Stornoway,GB,58.2093,-6.3865,44.92,81,54,0.0,haze
645,Pontianak,ID,-0.0333,109.3333,73.38,94,20,3.44,few clouds
646,Hope,US,33.6671,-93.5916,78.85,56,14,5.41,few clouds
647,Date,JP,42.4681,140.8681,40.1,71,72,21.23,broken clouds
648,Lufilufi,WS,-13.8745,-171.5986,87.58,72,95,13.04,overcast clouds
649,San Juan,AR,-31.5375,-68.5364,78.51,18,30,8.37,scattered clouds
650,Verkh-Chebula,RU,56.0308,87.6218,7.52,86,9,7.11,clear sky
651,Jiujiang,CN,29.7333,115.9833,56.01,78,97,4.72,overcast clouds
652,Del Gallego,PH,13.9223,122.5954,78.31,87,99,4.0,overcast clouds
653,Casambalangan,PH,18.3765,122.1274,79.97,84,26,8.32,scattered clouds
654,Lazaro Cardenas,MX,17.9583,-102.2,82.98,44,79,10.74,broken clouds
655,Liepaja,LV,56.5419,21.0367,39.18,93,0,10.36,clear sky
656,Mackay,AU,-21.15,149.2,81.68,79,8,7.85,clear sky
657,Mayo,US,38.8876,-76.5119,40.08,48,100,17.27,overcast clouds
658,Burgos,ES,42.3394,-3.7079,48.61,76,0,9.22,clear sky
659,Coihaique,CL,-45.5752,-72.0662,48.81,87,100,8.05,light rain
660,Kharp,RU,66.8014,65.8081,15.15,96,100,10.36,snow
661,Pulawy,PL,51.4166,21.9694,39.22,52,49,4.0,scattered clouds
662,Akyab,MM,20.15,92.9,77.94,84,25,2.71,scattered clouds
663,Wentzville,US,38.8114,-90.8529,47.62,37,90,4.0,overcast clouds
664,Solnechnyy,RU,50.7214,136.6319,20.14,73,91,3.87,overcast clouds
665,Vanimo,PG,-2.6741,141.3028,83.1,69,92,3.85,overcast clouds
666,Puerto Suarez,BO,-18.95,-57.8,75.31,73,87,3.09,overcast clouds
667,Tuy Hoa,VN,13.0833,109.3,74.8,91,99,4.63,overcast clouds
668,Kokopo,PG,-4.352,152.2633,81.68,76,95,6.58,light rain
669,Cabedelo,BR,-6.9811,-34.8339,79.47,84,89,9.75,overcast clouds
670,Mokrousovo,RU,55.8103,66.7653,17.89,90,82,12.15,broken clouds
671,Iracoubo,GF,5.4802,-53.2011,77.94,85,95,13.13,overcast clouds
672,America Dourada,BR,-11.4553,-41.4361,73.49,65,78,5.17,broken clouds
673,Magadan,RU,59.5667,150.8,12.54,71,100,9.62,overcast clouds
674,Mul,IN,20.0667,79.6667,80.02,17,83,3.27,broken clouds
675,Dutse,NG,11.7594,9.3392,74.57,13,6,11.03,clear sky
676,Gangapur,IN,26.4833,76.7167,74.16,13,0,2.82,clear sky
677,Hambantota,LK,6.1241,81.1185,78.04,86,16,5.17,few clouds
678,Andenes,NO,69.3143,16.1194,26.58,68,40,21.85,scattered clouds
679,Mercedes,AR,-34.6515,-59.4307,68.86,61,0,1.45,clear sky
680,San Juan Evangelista,MX,17.9,-95.1333,82.44,40,51,15.57,broken clouds
681,Labuhan,ID,-6.8844,112.2051,78.89,83,96,6.82,light rain
682,Kabo,CF,7.6994,18.629,75.34,16,99,2.77,overcast clouds
683,Dali,CN,25.7,100.1833,45.72,91,37,0.65,scattered clouds
684,Adeje,ES,28.1227,-16.726,62.31,68,20,9.22,few clouds
685,Clarksdale,US,34.2001,-90.5709,64.9,29,0,13.8,clear sky
686,Eureka,US,40.8021,-124.1637,69.75,68,99,8.01,overcast clouds
687,Haimen,CN,23.1935,116.6142,55.29,74,100,22.91,overcast clouds
688,Requena,ES,39.4883,-1.1004,41.52,87,93,4.21,overcast clouds
689,Bakchar,RU,57.0186,82.0711,-1.91,99,72,3.87,broken clouds
690,Dauriya,RU,49.9333,116.8667,25.21,47,68,4.59,broken clouds
691,Abonnema,NG,4.7084,6.7931,80.6,83,37,5.26,scattered clouds
692,Aden,YE,12.7794,45.0367,80.13,61,5,3.18,clear sky
693,Caravelas,BR,-17.7125,-39.2481,76.17,83,0,5.1,clear sky
694,Aquin,HT,18.2833,-73.4,77.94,73,72,10.18,broken clouds
